[{"med_code":"00102","med_school_name":"University of Alabama School of Medicine","med_city":"Birmingham (main); Tuscaloosa, Huntsville & Montgomery (only clinical years)","med_state_name":"Alabama","med_est":1859,"med_degree":"MD","med_address":"UNIV OF AL SCH OF MED, BIRMINGHAM AL  35294","med_mcat_score":508,"med_lon":-86.804,"med_lat":33.5032,"med_state":"01","med_county":"073","med_tract":"004500","med_geoid":"01073004500","med_n_primary":2132,"med_n_specialty":4605},{"med_code":"00106","med_school_name":"University of South Alabama College of Medicine","med_city":"Mobile","med_state_name":"Alabama","med_est":1972,"med_degree":"MD","med_address":"UNIV OF SOUTH AL COLL OF MED, MOBILE AL 36688","med_lon":-88.177,"med_lat":30.6991,"med_state":"01","med_county":"097","med_tract":"003605","med_geoid":"01097003605","med_n_primary":885,"med_n_specialty":1544},{"med_code":"00301","med_school_name":"University of Arizona College of Medicine - Tucson","med_city":"Tucson","med_state_name":"Arizona","med_est":1967,"med_degree":"MD","med_address":"UNIV OF AZ COLL OF MED, TUCSON AZ 85724","med_mcat_score":506,"med_lon":-110.9461,"med_lat":32.24,"med_state":"04","med_county":"019","med_tract":"001500","med_geoid":"04019001500","med_n_primary":1336,"med_n_specialty":2644},{"med_code":"00375","med_school_name":"Midwestern University Arizona College of Osteopathic Medicine","med_city":"Glendale","med_state_name":"Arizona","med_est":1995,"med_degree":"DO","med_address":"MIDWESTERN UNIV, AZ COLL OF OSTEO MED, GLENDALE, A","med_mcat_score":505,"med_lon":-112.1825,"med_lat":33.6637,"med_state":"04","med_county":"013","med_tract":"616000","med_geoid":"04013616000","med_n_primary":420,"med_n_specialty":783},{"med_code":"00401","med_school_name":"University of Arkansas for Medical Sciences/UAMS College of Medicine","med_city":"Little Rock & Fayetteville (3rd and 4th-year students)","med_state_name":"Arkansas","med_est":1879,"med_degree":"MD","med_address":"UNIV OF AR COLL OF MED, LITTLE ROCK AR 72205","med_mcat_score":506,"med_lon":-92.3207,"med_lat":34.7486,"med_state":"05","med_county":"119","med_tract":"004800","med_geoid":"05119004800","med_n_primary":2201,"med_n_specialty":3522},{"med_code":"00502","med_school_name":"UCSF School of Medicine","med_city":"San Francisco","med_state_name":"California","med_est":1864,"med_degree":"MD","med_address":"UNIV OF CA, SAN FRANCISCO, SCH OF MED, SAN FRANCIS","med_mcat_score":516,"med_lon":-122.461,"med_lat":37.7616,"med_state":"06","med_county":"075","med_tract":"030102","med_geoid":"06075030102","med_n_primary":2198,"med_n_specialty":4486},{"med_code":"00506","med_school_name":"Keck School of Medicine of University of Southern California","med_city":"Los Angeles","med_state_name":"California","med_est":1885,"med_degree":"MD","med_address":"KECK SCH OF MED OF THE USC, LOS ANGELES CA 90089","med_mcat_score":515,"med_lon":-118.2057,"med_lat":34.0611,"med_state":"06","med_county":"037","med_tract":"203300","med_geoid":"06037203300","med_n_primary":2009,"med_n_specialty":4733},{"med_code":"00515","med_school_name":"University of California, Irvine School of Medicine","med_city":"Irvine","med_state_name":"California","med_est":1896,"med_degree":"MD","med_address":"UNIV OF CA, IRVINE, CA COLL OF MED, IRVINE CA 9269","med_mcat_score":512,"med_lon":-117.8507,"med_lat":33.6446,"med_state":"06","med_county":"059","med_tract":"062614","med_geoid":"06059062614","med_n_primary":1225,"med_n_specialty":2645},{"med_code":"00511","med_school_name":"Stanford University School of Medicine","med_city":"Palo Alto","med_state_name":"California","med_est":1908,"med_degree":"MD","med_address":"STANFORD UNIV SCH OF MED, STANFORD CA 94305","med_mcat_score":518,"med_lon":-122.1758,"med_lat":37.4318,"med_state":"06","med_county":"085","med_tract":"511609","med_geoid":"06085511609","med_n_primary":899,"med_n_specialty":2853},{"med_code":"00512","med_school_name":"Loma Linda University School of Medicine","med_city":"Loma Linda","med_state_name":"California","med_est":1909,"med_degree":"MD","med_address":"LOMA LINDA UNIV SCH OF MED, LOMA LINDA CA 92350","med_mcat_score":508,"med_lon":-117.2641,"med_lat":34.0504,"med_state":"06","med_county":"071","med_tract":"007303","med_geoid":"06071007303","med_n_primary":2318,"med_n_specialty":4169},{"med_code":"00514","med_school_name":"David Geffen School of Medicine at UCLA","med_city":"Los Angeles","med_state_name":"California","med_est":1951,"med_degree":"MD","med_address":"D GEFFEN SCH OF MED-UCLA, LOS ANGELES CA 90095","med_mcat_score":508,"med_lon":-118.4434,"med_lat":34.0659,"med_state":"06","med_county":"037","med_tract":"265301","med_geoid":"06037265301","med_n_primary":2169,"med_n_specialty":5087},{"med_code":"00519","med_school_name":"University of California, Davis School of Medicine","med_city":"Sacramento","med_state_name":"California","med_est":1966,"med_degree":"MD","med_address":"UNIV OF CA DAVIS, SCH OF MED, DAVIS CA 95616","med_mcat_score":509,"med_lon":-121.7549,"med_lat":38.5402,"med_state":"06","med_county":"113","med_tract":"010501","med_geoid":"06113010501","med_n_primary":1481,"med_n_specialty":2294},{"med_code":"00518","med_school_name":"University of California, San Diego School of Medicine","med_city":"San Diego","med_state_name":"California","med_est":1968,"med_degree":"MD","med_address":"UNIV OF CA, SAN DIEGO, SCH OF MED, LA JOLLA CA 920","med_mcat_score":517,"med_lon":-117.2358,"med_lat":32.8752,"med_state":"06","med_county":"073","med_tract":"008305","med_geoid":"06073008305","med_n_primary":1505,"med_n_specialty":3152},{"med_code":"00576","med_school_name":"Western University of Health Sciences College of Osteopathic Medicine of the Pacific","med_city":"Pomona","med_state_name":"California","med_est":1977,"med_degree":"DO","med_address":"WESTERN U HLT SCI, COL OSTEO MED OF THE PACIFIC, P","med_mcat_score":506,"med_lon":-117.7475,"med_lat":34.0582,"med_state":"06","med_county":"037","med_tract":"408800","med_geoid":"06037408800","med_n_primary":2016,"med_n_specialty":2161},{"med_code":"00577","med_school_name":"Touro University California College of Osteopathic Medicine","med_city":"Vallejo","med_state_name":"California","med_est":1997,"med_degree":"DO","med_address":"TOURO UNIV COLL OF OSTEO MED, VALLEJO CA 94592","med_mcat_score":507,"med_lon":-122.2639,"med_lat":38.0855,"med_state":"06","med_county":"095","med_tract":"250801","med_geoid":"06095250801","med_n_primary":549,"med_n_specialty":875},{"med_code":"00702","med_school_name":"University of Colorado School of Medicine","med_city":"Aurora","med_state_name":"Colorado","med_est":1883,"med_degree":"MD","med_address":"UNIV OF CO SCH OF MED, DENVER CO 80262","med_mcat_score":512,"med_lon":-105.0023,"med_lat":39.7464,"med_state":"08","med_county":"031","med_tract":"001902","med_geoid":"08031001902","med_n_primary":1921,"med_n_specialty":3676},{"med_code":"00801","med_school_name":"Yale School of Medicine","med_city":"New Haven","med_state_name":"Connecticut","med_est":1810,"med_degree":"MD","med_address":"YALE UNIV SCH OF MED, NEW HAVEN CT 06510","med_mcat_score":518,"med_lon":-72.9358,"med_lat":41.3045,"med_state":"09","med_county":"009","med_tract":"140300","med_geoid":"09009140300","med_n_primary":915,"med_n_specialty":3589},{"med_code":"00802","med_school_name":"University of Connecticut School of Medicine","med_city":"Farmington","med_state_name":"Connecticut","med_est":1961,"med_degree":"MD","med_address":"UNIV OF CT SCH OF MED, FARMINGTON CT 06032","med_mcat_score":511,"med_lon":-72.7912,"med_lat":41.7298,"med_state":"09","med_county":"003","med_tract":"460100","med_geoid":"09003460100","med_n_primary":1026,"med_n_specialty":2197},{"med_code":"01001","med_school_name":"George Washington University Medical School","med_city":"Washington, D.C.","med_state_name":"District of Columbia","med_est":1824,"med_degree":"MD","med_address":"G WASHINGTON UNIV SCH MED & HLTH SCI, WASHINGTON D","med_mcat_score":511,"med_lon":-77.0508,"med_lat":38.9001,"med_state":"11","med_county":"001","med_tract":"005600","med_geoid":"11001005600","med_n_primary":1892,"med_n_specialty":4690},{"med_code":"01002","med_school_name":"Georgetown University School of Medicine","med_city":"Washington, D.C.","med_state_name":"District of Columbia","med_est":1851,"med_degree":"MD","med_address":"GEORGETOWN UNIV SCH OF MED, WASHINGTON DC 20007","med_mcat_score":512,"med_lon":-77.077,"med_lat":38.9119,"med_state":"11","med_county":"001","med_tract":"000201","med_geoid":"11001000201","med_n_primary":1966,"med_n_specialty":6270},{"med_code":"01003","med_school_name":"Howard University College of Medicine","med_city":"Washington, D.C.","med_state_name":"District of Columbia","med_est":1867,"med_degree":"MD","med_address":"HOWARD UNIV COLL OF MED, WASHINGTON DC 20059","med_mcat_score":502,"med_lon":-77.0201,"med_lat":38.919,"med_state":"11","med_county":"001","med_tract":"003400","med_geoid":"11001003400","med_n_primary":1639,"med_n_specialty":2769},{"med_code":"01102","med_school_name":"University of Miami Leonard M. Miller School of Medicine","med_city":"Miami","med_state_name":"Florida","med_est":1952,"med_degree":"MD","med_address":"U OF MIAMI L M MILLER, SOM, MIAMI, FL 33101","med_mcat_score":513,"med_lon":-80.212,"med_lat":25.7904,"med_state":"12","med_county":"086","med_tract":"003001","med_geoid":"12086003001","med_n_primary":1718,"med_n_specialty":5080},{"med_code":"01103","med_school_name":"University of Florida College of Medicine","med_city":"Gainesville & Jacksonville","med_state_name":"Florida","med_est":1956,"med_degree":"MD","med_address":"UNIV OF FL COLL OF MED, GAINESVILLE FL 32610","med_mcat_score":514,"med_lon":-82.3434,"med_lat":29.6402,"med_state":"12","med_county":"001","med_tract":"000902","med_geoid":"12001000902","med_n_primary":1353,"med_n_specialty":3559},{"med_code":"01104","med_school_name":"University of South Florida College of Medicine","med_city":"Tampa","med_state_name":"Florida","med_est":1971,"med_degree":"MD","med_address":"UNIV OF SOUTH FL COLL OF MED, TAMPA FL 33612","med_mcat_score":514,"med_lon":-82.4245,"med_lat":28.0641,"med_state":"12","med_county":"057","med_tract":"010900","med_geoid":"12057010900","med_n_primary":1156,"med_n_specialty":2745},{"med_code":"01175","med_school_name":"Nova Southeastern University College of Osteopathic Medicine","med_city":"Davie","med_state_name":"Florida","med_est":1979,"med_degree":"DO","med_address":"NOVA SE UNIV, COLL OF OSTEO MED, FT LAUDERDALE FL","med_mcat_score":506,"med_lon":-80.2499,"med_lat":26.0812,"med_state":"12","med_county":"011","med_tract":"070204","med_geoid":"12011070204","med_n_primary":1346,"med_n_specialty":2268},{"med_code":"01105","med_school_name":"Florida State University College of Medicine","med_city":"Tallahassee","med_state_name":"Florida","med_est":2000,"med_degree":"MD","med_address":"FL STATE UNIV COLL OF MED, TALLAHASSEE FL 32306","med_mcat_score":505,"med_lon":-84.3056,"med_lat":30.4455,"med_state":"12","med_county":"073","med_tract":"001300","med_geoid":"12073001300","med_n_primary":391,"med_n_specialty":750},{"med_code":"01201","med_school_name":"Medical College of Georgia at Augusta University","med_city":"Augusta (main), Athens (four-year campus); Albany and Savannah (only 4th-year students)","med_state_name":"Georgia","med_est":1828,"med_degree":"MD","med_address":"MED COLL OF GA SCH OF MED, AUGUSTA GA 30912","med_mcat_score":510,"med_lon":-81.9911,"med_lat":33.4668,"med_state":"13","med_county":"245","med_tract":"000900","med_geoid":"13245000900","med_n_primary":2406,"med_n_specialty":5189},{"med_code":"01205","med_school_name":"Emory University School of Medicine","med_city":"Atlanta","med_state_name":"Georgia","med_est":1915,"med_degree":"MD","med_address":"EMORY UNIV SCH OF MED, ATLANTA GA 30322","med_mcat_score":515,"med_lon":-84.3213,"med_lat":33.7931,"med_state":"13","med_county":"089","med_tract":"022402","med_geoid":"13089022402","med_n_primary":1283,"med_n_specialty":3704},{"med_code":"01221","med_school_name":"Morehouse School of Medicine","med_city":"Atlanta","med_state_name":"Georgia","med_est":1975,"med_degree":"MD","med_address":"MOREHOUSE SCH OF MED, ATLANTA GA 30310","med_mcat_score":503,"med_lon":-84.412,"med_lat":33.7427,"med_state":"13","med_county":"121","med_tract":"004300","med_geoid":"13121004300","med_n_primary":580,"med_n_specialty":645},{"med_code":"01222","med_school_name":"Mercer University School of Medicine","med_city":"Macon","med_state_name":"Georgia","med_est":1982,"med_degree":"MD","med_address":"MERCER UNIV SCH OF MED, MACON GA 31207","med_mcat_score":507,"med_lon":-83.6481,"med_lat":32.8279,"med_state":"13","med_county":"021","med_tract":"010500","med_geoid":"13021010500","med_n_primary":703,"med_n_specialty":1009},{"med_code":"01401","med_school_name":"University of Hawaii at Manoa John A. Burns School of Medicine","med_city":"Honolulu","med_state_name":"Hawaii","med_est":1965,"med_degree":"MD","med_address":"UNIV OF HI J A BURNS SCH MED, HONOLULU HI 96822","med_mcat_score":510,"med_lon":-157.8634,"med_lat":21.296,"med_state":"15","med_county":"003","med_tract":"003800","med_geoid":"15003003800","med_n_primary":944,"med_n_specialty":1388},{"med_code":"01601","med_school_name":"Rush Medical College","med_city":"Chicago","med_state_name":"Illinois","med_est":1837,"med_degree":"MD","med_address":"RUSH MED COLL OF RUSH UNIV, CHICAGO IL 60612","med_mcat_score":512,"med_lon":-87.6693,"med_lat":41.8747,"med_state":"17","med_county":"031","med_tract":"838100","med_geoid":"17031838100","med_n_primary":1515,"med_n_specialty":3264},{"med_code":"01606","med_school_name":"Northwestern University Feinberg School of Medicine","med_city":"Chicago","med_state_name":"Illinois","med_est":1859,"med_degree":"MD","med_address":"NWU, FEINBERG SCH OF MED, CHICAGO IL 60611","med_mcat_score":519,"med_lon":-87.6197,"med_lat":41.8964,"med_state":"17","med_county":"031","med_tract":"081401","med_geoid":"17031081401","med_n_primary":1648,"med_n_specialty":5801},{"med_code":"01611","med_school_name":"University of Illinois College of Medicine","med_city":"Chicago, Peoria, Rockford (M2's - M4's)","med_state_name":"Illinois","med_est":1882,"med_degree":"MD","med_address":"UNIV OF IL COLL OF MED, CHICAGO IL 60680","med_mcat_score":512,"med_lon":-87.673,"med_lat":41.871,"med_state":"17","med_county":"031","med_tract":"838200","med_geoid":"17031838200","med_n_primary":4156,"med_n_specialty":8678},{"med_code":"01676","med_school_name":"Midwestern University Chicago College of Osteopathic Medicine","med_city":"Downers Grove","med_state_name":"Illinois","med_est":1900,"med_degree":"DO","med_address":"MIDWESTERN UNIV, CHICAGO COLL OF OSTEO MED, DOWNER","med_mcat_score":506,"med_lon":-87.9994,"med_lat":41.828,"med_state":"17","med_county":"043","med_tract":"844402","med_geoid":"17043844402","med_n_primary":1749,"med_n_specialty":2467},{"med_code":"01642","med_school_name":"Chicago Medical School of Rosalind Franklin University of Medicine and Science","med_city":"North Chicago","med_state_name":"Illinois","med_est":1912,"med_degree":"MD","med_address":"CHICAGO M S AT R FRANKLIN U OF MED & SCI, NORTH CH","med_mcat_score":511,"med_lon":-87.8586,"med_lat":42.3004,"med_state":"17","med_county":"097","med_tract":"863004","med_geoid":"17097863004","med_n_primary":1940,"med_n_specialty":5065},{"med_code":"01643","med_school_name":"Loyola University Chicago Stritch School of Medicine","med_city":"Maywood","med_state_name":"Illinois","med_est":1915,"med_degree":"MD","med_address":"LOYOLA UNIV OF CHICAGO STRITCH SCH OF MED, MAYWOOD","med_mcat_score":507,"med_lon":-87.8357,"med_lat":41.8587,"med_state":"17","med_county":"031","med_tract":"817900","med_geoid":"17031817900","med_n_primary":1754,"med_n_specialty":3991},{"med_code":"01602","med_school_name":"University of Chicago Pritzker School of Medicine","med_city":"Chicago","med_state_name":"Illinois","med_est":1927,"med_degree":"MD","med_address":"U OF CHGO DIV OF BIO SCI PRITZKER SCH OF MED, CHIC","med_mcat_score":520,"med_lon":-87.6028,"med_lat":41.7919,"med_state":"17","med_county":"031","med_tract":"836200","med_geoid":"17031836200","med_n_primary":1060,"med_n_specialty":3540},{"med_code":"01645","med_school_name":"Southern Illinois University School of Medicine","med_city":"Springfield","med_state_name":"Illinois","med_est":1970,"med_degree":"MD","med_address":"SOUTHERN IL UNIV SCH OF MED, SPRINGFIELD IL 62794","med_mcat_score":507,"med_lon":-89.6576,"med_lat":39.8102,"med_state":"17","med_county":"167","med_tract":"000300","med_geoid":"17167000300","med_n_primary":1040,"med_n_specialty":1597},{"med_code":"01720","med_school_name":"Indiana University School of Medicine","med_city":"Indianapolis Bloomington, Fort Wayne, Terre Haute, South Bend, Lafayette, Gary, Evansville, Muncie","med_state_name":"Indiana","med_est":1903,"med_degree":"MD","med_address":"IN UNIV SCH OF MED, INDIANAPOLIS IN 46202","med_mcat_score":510,"med_lon":-86.1652,"med_lat":39.7816,"med_state":"18","med_county":"097","med_tract":"391000","med_geoid":"18097391000","med_n_primary":3702,"med_n_specialty":8143},{"med_code":"01803","med_school_name":"University of Iowa Roy J. and Lucille A. Carver College of Medicine","med_city":"Iowa City","med_state_name":"Iowa","med_est":1869,"med_degree":"MD","med_address":"U OF IA R J & L CARVER COM, IOWA CITY, IA 52242","med_mcat_score":512,"med_lon":-91.5453,"med_lat":41.6631,"med_state":"19","med_county":"103","med_tract":"002300","med_geoid":"19103002300","med_n_primary":2208,"med_n_specialty":4424},{"med_code":"01875","med_school_name":"Des Moines University College of Osteopathic Medicine","med_city":"Des Moines","med_state_name":"Iowa","med_est":1898,"med_degree":"DO","med_address":"DES MOINES UNIV, COLL OF  OSTEO MED & SURG, DES MO","med_mcat_score":507,"med_lon":-93.6609,"med_lat":41.5838,"med_state":"19","med_county":"153","med_tract":"003200","med_geoid":"19153003200","med_n_primary":3196,"med_n_specialty":3678},{"med_code":"01902","med_school_name":"University of Kansas School of Medicine","med_city":"Kansas City (main), Wichita (four-year campus), Salina (four-year campus)","med_state_name":"Kansas","med_est":1880,"med_degree":"MD","med_address":"UNIV OF KS SCH OF MED, KANSAS CITY KS 66103","med_mcat_score":507,"med_lon":-94.6114,"med_lat":39.0562,"med_state":"20","med_county":"209","med_tract":"045200","med_geoid":"20209045200","med_n_primary":2786,"med_n_specialty":4640},{"med_code":"02002","med_school_name":"University of Louisville School of Medicine","med_city":"Louisville","med_state_name":"Kentucky","med_est":1837,"med_degree":"MD","med_address":"UNIV OF LOUISVILLE SCH OF MED, LOUISVILLE KY 40202","med_mcat_score":508,"med_lon":-85.7478,"med_lat":38.2498,"med_state":"21","med_county":"111","med_tract":"005900","med_geoid":"21111005900","med_n_primary":1904,"med_n_specialty":3912},{"med_code":"02012","med_school_name":"University of Kentucky College of Medicine","med_city":"Lexington","med_state_name":"Kentucky","med_est":1960,"med_degree":"MD","med_address":"UNIV OF KY COLL OF MED, LEXINGTON KY 40536","med_mcat_score":512,"med_lon":-84.5074,"med_lat":38.0312,"med_state":"21","med_county":"067","med_tract":"000801","med_geoid":"21067000801","med_n_primary":1405,"med_n_specialty":2692},{"med_code":"02101","med_school_name":"Tulane University School of Medicine","med_city":"New Orleans","med_state_name":"Louisiana","med_est":1834,"med_degree":"MD","med_address":"TULANE UNIV SCH OF MED, NEW ORLEANS LA 70112","med_mcat_score":511,"med_lon":-90.0769,"med_lat":29.9549,"med_state":"22","med_county":"071","med_tract":"013400","med_geoid":"22071013400","med_n_primary":1702,"med_n_specialty":5177},{"med_code":"02105","med_school_name":"Louisiana State University School of Medicine in New Orleans","med_city":"New Orleans","med_state_name":"Louisiana","med_est":1931,"med_degree":"MD","med_address":"LSU SCH OF MED IN NEW ORLEANS, NEW ORLEANS LA 7011","med_mcat_score":509,"med_lon":-90.0833,"med_lat":29.9573,"med_state":"22","med_county":"071","med_tract":"006000","med_geoid":"22071006000","med_n_primary":2115,"med_n_specialty":5344},{"med_code":"02106","med_school_name":"Louisiana State University School of Medicine in Shreveport","med_city":"Shreveport","med_state_name":"Louisiana","med_est":1969,"med_degree":"MD","med_address":"LSU SCH OF MED IN  SHREVEPORT, SHREVEPORT LA 71130","med_mcat_score":503,"med_lon":-93.7607,"med_lat":32.4806,"med_state":"22","med_county":"017","med_tract":"021700","med_geoid":"22017021700","med_n_primary":1171,"med_n_specialty":2662},{"med_code":"02275","med_school_name":"University of New England College of Osteopathic Medicine","med_city":"Biddeford","med_state_name":"Maine","med_est":1978,"med_degree":"DO","med_address":"UNIV OF NEW ENGLAND, COLL OF OSTEO MED, BIDDEFORD","med_lon":-70.3865,"med_lat":43.4583,"med_state":"23","med_county":"031","med_tract":"025400","med_geoid":"23031025400","med_n_primary":1131,"med_n_specialty":1461},{"med_code":"02301","med_school_name":"University of Maryland School of Medicine","med_city":"Baltimore","med_state_name":"Maryland","med_est":1807,"med_degree":"MD","med_address":"UNIV OF MD SCH OF MED, BALTIMORE MD 21201","med_mcat_score":512,"med_lon":-76.6257,"med_lat":39.289,"med_state":"24","med_county":"510","med_tract":"040200","med_geoid":"24510040200","med_n_primary":2146,"med_n_specialty":4627},{"med_code":"02307","med_school_name":"Johns Hopkins University School of Medicine","med_city":"Baltimore","med_state_name":"Maryland","med_est":1887,"med_degree":"MD","med_address":"JOHNS HOPKINS UNIV SCH OF MED, BALTIMORE MD 21205","med_mcat_score":519,"med_lon":-76.5934,"med_lat":39.2992,"med_state":"24","med_county":"510","med_tract":"070400","med_geoid":"24510070400","med_n_primary":1074,"med_n_specialty":4210},{"med_code":"02312","med_school_name":"Uniformed Services University of the Health Sciences F. Edward Hebert School of Medicine","med_city":"Bethesda","med_state_name":"Maryland","med_est":1972,"med_degree":"MD","med_address":"USUHS F E HEBERT SCH OF MED BETHESDA MD 20814","med_mcat_score":512,"med_lon":-77.0868,"med_lat":39.0018,"med_state":"24","med_county":"031","med_tract":"705000","med_geoid":"24031705000","med_n_primary":1370,"med_n_specialty":3997},{"med_code":"02401","med_school_name":"Harvard Medical School","med_city":"Boston","med_state_name":"Massachusetts","med_est":1782,"med_degree":"MD","med_address":"HARVARD MED SCH, BOSTON MA 02115","med_mcat_score":518,"med_lon":-71.1041,"med_lat":42.3356,"med_state":"25","med_county":"025","med_tract":"081001","med_geoid":"25025081001","med_n_primary":1757,"med_n_specialty":6018},{"med_code":"02405","med_school_name":"Boston University School of Medicine","med_city":"Boston","med_state_name":"Massachusetts","med_est":1848,"med_degree":"MD","med_address":"BOSTON UNIV SCH OF MED, BOSTON MA 02118","med_mcat_score":517,"med_lon":-71.0721,"med_lat":42.3361,"med_state":"25","med_county":"025","med_tract":"071101","med_geoid":"25025071101","med_n_primary":1814,"med_n_specialty":4740},{"med_code":"02407","med_school_name":"Tufts University School of Medicine","med_city":"Boston","med_state_name":"Massachusetts","med_est":1893,"med_degree":"MD","med_address":"TUFTS UNIV SCH OF MED, BOSTON MA 02111","med_mcat_score":513,"med_lon":-71.0623,"med_lat":42.3501,"med_state":"25","med_county":"025","med_tract":"070200","med_geoid":"25025070200","med_n_primary":2166,"med_n_specialty":5154},{"med_code":"02416","med_school_name":"University of Massachusetts Medical School","med_city":"Worcester","med_state_name":"Massachusetts","med_est":1962,"med_degree":"MD","med_address":"UNIV OF MA MED SCH, WORCESTER MA 01655","med_mcat_score":512,"med_lon":-71.7611,"med_lat":42.2772,"med_state":"25","med_county":"027","med_tract":"732002","med_geoid":"25027732002","med_n_primary":1553,"med_n_specialty":2330},{"med_code":"02501","med_school_name":"University of Michigan Medical School","med_city":"Ann Arbor","med_state_name":"Michigan","med_est":1850,"med_degree":"MD","med_address":"UNIV OF MI MED SCH, ANN ARBOR MI 48109","med_mcat_score":516,"med_lon":-83.7326,"med_lat":42.284,"med_state":"26","med_county":"161","med_tract":"400200","med_geoid":"26161400200","med_n_primary":2014,"med_n_specialty":6486},{"med_code":"02507","med_school_name":"Wayne State University School of Medicine","med_city":"Detroit","med_state_name":"Michigan","med_est":1868,"med_degree":"MD","med_address":"WAYNE STATE UNIV SOM, DETROIT MI 48201","med_mcat_score":508,"med_lon":-83.0555,"med_lat":42.3545,"med_state":"26","med_county":"163","med_tract":"517500","med_geoid":"26163517500","med_n_primary":3108,"med_n_specialty":7677},{"med_code":"02512","med_school_name":"Michigan State University College of Human Medicine","med_city":"East Lansing (pre-clinical campus), Grand Rapids (pre-clinical and clinical campus), Flint (branch campus)","med_state_name":"Michigan","med_est":1964,"med_degree":"MD","med_address":"MI STATE UNIV COLL HUMAN MED, EAST LANSING MI 4882","med_mcat_score":507,"med_lon":-84.464,"med_lat":42.7223,"med_state":"26","med_county":"065","med_tract":"004494","med_geoid":"26065004494","med_n_primary":1779,"med_n_specialty":2751},{"med_code":"02576","med_school_name":"Michigan State University College of Osteopathic Medicine","med_city":"East Lansing, Detroit, Clinton Township","med_state_name":"Michigan","med_est":1969,"med_degree":"DO","med_address":"MI STATE UNIV, COLL OF OSTEO MED, EAST LANSING MI","med_mcat_score":506,"med_lon":-84.464,"med_lat":42.7223,"med_state":"26","med_county":"065","med_tract":"004494","med_geoid":"26065004494","med_n_primary":1585,"med_n_specialty":2832},{"med_code":"02604","med_school_name":"University of Minnesota Medical School","med_city":"Minneapolis, Duluth (1st and 2nd-year students)","med_state_name":"Minnesota","med_est":1888,"med_degree":"MD","med_address":"UNIV OF MN MED SCH, MINNEAPOLIS MN 55455","med_mcat_score":509,"med_lon":-93.2329,"med_lat":44.9723,"med_state":"27","med_county":"053","med_tract":"104900","med_geoid":"27053104900","med_n_primary":4088,"med_n_specialty":6015},{"med_code":"02608","med_school_name":"Mayo Clinic College of Medicine","med_city":"Rochester","med_state_name":"Minnesota","med_est":1972,"med_degree":"MD","med_address":"MAYO MED SCH, ROCHESTER MN 55905","med_mcat_score":513,"med_lon":-92.4668,"med_lat":44.0224,"med_state":"27","med_county":"109","med_tract":"000100","med_geoid":"27109000100","med_n_primary":435,"med_n_specialty":1173},{"med_code":"02701","med_school_name":"University of Mississippi School of Medicine","med_city":"Jackson","med_state_name":"Mississippi","med_est":1903,"med_degree":"MD","med_address":"UNIV OF MS SCH OF MED, JACKSON MS 39216","med_mcat_score":502,"med_lon":-90.1739,"med_lat":32.3298,"med_state":"28","med_county":"049","med_tract":"001300","med_geoid":"28049001300","med_n_primary":1672,"med_n_specialty":3134},{"med_code":"02803","med_school_name":"University of Missouri-Columbia School of Medicine","med_city":"Columbia","med_state_name":"Missouri","med_est":1845,"med_degree":"MD","med_address":"UNIV OF MO, COLUMBIA SCH OF MED, COLUMBIA MO 65212","med_mcat_score":509,"med_lon":-92.3284,"med_lat":38.9384,"med_state":"29","med_county":"019","med_tract":"002200","med_geoid":"29019002200","med_n_primary":1532,"med_n_specialty":2776},{"med_code":"02802","med_school_name":"Washington University School of Medicine","med_city":"St. Louis","med_state_name":"Missouri","med_est":1891,"med_degree":"MD","med_address":"WASHINGTON UNIV SCH OF MED, ST LOUIS MO 63110","med_mcat_score":521,"med_lon":-90.2629,"med_lat":38.6351,"med_state":"29","med_county":"510","med_tract":"118600","med_geoid":"29510118600","med_n_primary":1166,"med_n_specialty":4217},{"med_code":"02879","med_school_name":"A. T. Still University Kirksville College of Osteopathic Medicine","med_city":"Kirksville","med_state_name":"Missouri","med_est":1892,"med_degree":"DO","med_address":"A T STILL U HLTH SCI KIRKSVILLE COM, KIRKSVILLE MO","med_mcat_score":504,"med_lon":-92.589,"med_lat":40.1936,"med_state":"29","med_county":"001","med_tract":"950500","med_geoid":"29001950500","med_n_primary":2361,"med_n_specialty":2897},{"med_code":"02834","med_school_name":"Saint Louis University School of Medicine","med_city":"St. Louis","med_state_name":"Missouri","med_est":1901,"med_degree":"MD","med_address":"ST LOUIS UNIV SCH OF MED, ST LOUIS MO 63104","med_mcat_score":512,"med_lon":-90.2379,"med_lat":38.6221,"med_state":"29","med_county":"510","med_tract":"127300","med_geoid":"29510127300","med_n_primary":2098,"med_n_specialty":4444},{"med_code":"02878","med_school_name":"Kansas City University of Medicine and Biosciences College of Osteopathic Medicine","med_city":"Kansas City, Joplin (2017)","med_state_name":"Missouri","med_est":1916,"med_degree":"DO","med_address":"KS UNIV OF MED & BIOSCI, COLL OF OSTEO MED, KANSAS","med_mcat_score":505,"med_lon":-94.5612,"med_lat":39.1074,"med_state":"29","med_county":"095","med_tract":"001000","med_geoid":"29095001000","med_n_primary":2757,"med_n_specialty":3947},{"med_code":"02846","med_school_name":"University of Missouri-Kansas City School of Medicine","med_city":"Kansas City","med_state_name":"Missouri","med_est":1971,"med_degree":"MD","med_address":"UNIV OF MO-KANSAS CITY SCH OF MED, KANSAS CITY MO","med_mcat_score":509,"med_lon":-94.5755,"med_lat":39.0823,"med_state":"29","med_county":"095","med_tract":"004300","med_geoid":"29095004300","med_n_primary":1054,"med_n_specialty":2326},{"med_code":"03005","med_school_name":"University of Nebraska College of Medicine","med_city":"Omaha","med_state_name":"Nebraska","med_est":1881,"med_degree":"MD","med_address":"UNIV OF NE COLL OF MED, OMAHA NE 68198","med_mcat_score":509,"med_lon":-95.9752,"med_lat":41.2557,"med_state":"31","med_county":"055","med_tract":"004300","med_geoid":"31055004300","med_n_primary":1873,"med_n_specialty":3514},{"med_code":"03006","med_school_name":"Creighton University School of Medicine","med_city":"Omaha","med_state_name":"Nebraska","med_est":1892,"med_degree":"MD","med_address":"CREIGHTON UNIV SCH OF MED, OMAHA NE 68178","med_mcat_score":510,"med_lon":-96.0307,"med_lat":41.2394,"med_state":"31","med_county":"055","med_tract":"006806","med_geoid":"31055006806","med_n_primary":1424,"med_n_specialty":3408},{"med_code":"03101","med_school_name":"University of Nevada, Reno School of Medicine","med_city":"Reno","med_state_name":"Nevada","med_est":1969,"med_degree":"MD","med_address":"UNIV OF NV SCH OF MED, RENO NV 89557","med_mcat_score":509,"med_lon":-119.8158,"med_lat":39.5494,"med_state":"32","med_county":"031","med_tract":"001502","med_geoid":"32031001502","med_n_primary":607,"med_n_specialty":1224},{"med_code":"03201","med_school_name":"Dartmouth College Geisel School of Medicine","med_city":"Hanover","med_state_name":"New Hampshire","med_est":1797,"med_degree":"MD","med_address":"DARTMOUTH MED, HANOVER NH 03755","med_mcat_score":515,"med_lon":-72.2851,"med_lat":43.7087,"med_state":"33","med_county":"009","med_tract":"961602","med_geoid":"33009961602","med_n_primary":754,"med_n_specialty":1857},{"med_code":"03305","med_school_name":"Rutgers New Jersey Medical School","med_city":"Newark","med_state_name":"New Jersey","med_est":1954,"med_degree":"MD","med_address":"UMDNJ-NEW JERSEY MED SCH, NEWARK NJ 07103","med_lon":-74.1897,"med_lat":40.7401,"med_state":"34","med_county":"013","med_tract":"008200","med_geoid":"34013008200","med_n_primary":1760,"med_n_specialty":5037},{"med_code":"03306","med_school_name":"Rutgers Robert Wood Johnson Medical School","med_city":"Piscataway & New Brunswick","med_state_name":"New Jersey","med_est":1961,"med_degree":"MD","med_address":"UMDNJ-ROBT W JOHNSON MED SCH, NEW BRUNSWICK NJ 089","med_lon":-74.451,"med_lat":40.4942,"med_state":"34","med_county":"023","med_tract":"005300","med_geoid":"34023005300","med_n_primary":1467,"med_n_specialty":3847},{"med_code":"03375","med_school_name":"Rowan University School of Osteopathic Medicine","med_city":"Stratford","med_state_name":"New Jersey","med_est":1976,"med_degree":"DO","med_address":"UMDNJ-SCH OF OSTEO MED, STRATFORD NJ 08084","med_lon":-75.0067,"med_lat":39.8309,"med_state":"34","med_county":"007","med_tract":"608001","med_geoid":"34007608001","med_n_primary":645,"med_n_specialty":1302},{"med_code":"03401","med_school_name":"University of New Mexico School of Medicine","med_city":"Albuquerque","med_state_name":"New Mexico","med_est":1961,"med_degree":"MD","med_address":"UNIV OF NM SCH OF MED, ALBUQUERQUE NM 87131","med_mcat_score":504,"med_lon":-106.6181,"med_lat":35.0899,"med_state":"35","med_county":"001","med_tract":"001800","med_geoid":"35001001800","med_n_primary":1157,"med_n_specialty":1758},{"med_code":"03515","med_school_name":"State University of New York Upstate Medical University","med_city":"Syracuse","med_state_name":"New York","med_est":1834,"med_degree":"MD","med_address":"SUNY UPSTATE MED UNIV, SYRACUSE, NY  13210","med_mcat_score":512,"med_lon":-76.1407,"med_lat":43.0433,"med_state":"36","med_county":"067","med_tract":"004302","med_geoid":"36067004302","med_n_primary":1879,"med_n_specialty":4637},{"med_code":"03503","med_school_name":"Albany Medical College","med_city":"Albany","med_state_name":"New York","med_est":1838,"med_degree":"MD","med_address":"ALBANY MED COLL, ALBANY NY  12208","med_mcat_score":510,"med_lon":-73.7777,"med_lat":42.6532,"med_state":"36","med_county":"001","med_tract":"002100","med_geoid":"36001002100","med_n_primary":1580,"med_n_specialty":3933},{"med_code":"03519","med_school_name":"New York University School of Medicine","med_city":"Manhattan","med_state_name":"New York","med_est":1841,"med_degree":"MD","med_address":"NEW YORK UNIV SCH OF MED, NEW YORK NY 10016","med_mcat_score":520,"med_lon":-73.9742,"med_lat":40.742,"med_state":"36","med_county":"061","med_tract":"006200","med_geoid":"36061006200","med_n_primary":1648,"med_n_specialty":5948},{"med_code":"03506","med_school_name":"Jacobs School of Medicine and Biomedical Sciences, University at Buffalo","med_city":"Buffalo","med_state_name":"New York","med_est":1846,"med_degree":"MD","med_address":"U OF BUFFALO, SUNY SCH OF MED & BIOMEDICAL SCI, BU","med_mcat_score":511,"med_lon":-78.8159,"med_lat":42.9536,"med_state":"36","med_county":"029","med_tract":"004602","med_geoid":"36029004602","med_n_primary":1777,"med_n_specialty":4357},{"med_code":"03509","med_school_name":"New York Medical College","med_city":"Valhalla","med_state_name":"New York","med_est":1858,"med_degree":"MD","med_address":"NEW YORK MED COLL, VALHALLA NY 10595","med_mcat_score":512,"med_lon":-73.8097,"med_lat":41.0853,"med_state":"36","med_county":"119","med_tract":"981000","med_geoid":"36119981000","med_n_primary":2218,"med_n_specialty":6499},{"med_code":"03508","med_school_name":"State University of New York Downstate Medical Center College of Medicine","med_city":"Brooklyn","med_state_name":"New York","med_est":1858,"med_degree":"MD","med_address":"SUNY, DWNSTATE M C COLL MED, BROOKLYN NY 11203","med_mcat_score":514,"med_lon":-73.9453,"med_lat":40.6553,"med_state":"36","med_county":"047","med_tract":"081600","med_geoid":"36047081600","med_n_primary":2358,"med_n_specialty":7091},{"med_code":"03520","med_school_name":"Weill Cornell Medical College","med_city":"Manhattan","med_state_name":"New York","med_est":1898,"med_degree":"MD","med_address":"J & S WEILL M C CORNELL UNIV, NEW YORK  NY 10021","med_mcat_score":519,"med_lon":-73.9602,"med_lat":40.7608,"med_state":"36","med_county":"061","med_tract":"010602","med_geoid":"36061010602","med_n_primary":929,"med_n_specialty":3767},{"med_code":"03545","med_school_name":"University of Rochester School of Medicine and Dentistry","med_city":"Rochester","med_state_name":"New York","med_est":1925,"med_degree":"MD","med_address":"UNIV OF ROCHESTER SCH OF MED & DENTISTRY, ROCHESTE","med_mcat_score":515,"med_lon":-77.6269,"med_lat":43.1231,"med_state":"36","med_county":"055","med_tract":"003805","med_geoid":"36055003805","med_n_primary":1236,"med_n_specialty":3109},{"med_code":"03546","med_school_name":"Albert Einstein College of Medicine","med_city":"The Bronx","med_state_name":"New York","med_est":1955,"med_degree":"MD","med_address":"A EINSTEIN COL MED YESHIVA UNIV, BRONX NY 10461","med_mcat_score":516,"med_lon":-73.8444,"med_lat":40.8521,"med_state":"36","med_county":"005","med_tract":"029600","med_geoid":"36005029600","med_n_primary":1939,"med_n_specialty":5806},{"med_code":"03547","med_school_name":"Icahn School of Medicine at Mount Sinai","med_city":"Manhattan","med_state_name":"New York","med_est":1963,"med_degree":"MD","med_address":"MT SINAI SCH OF MED OF NY UNIV, NEW YORK NY 10029","med_lon":-73.9534,"med_lat":40.7899,"med_state":"36","med_county":"061","med_tract":"016800","med_geoid":"36061016800","med_n_primary":1184,"med_n_specialty":3923},{"med_code":"03548","med_school_name":"Stony Brook University School of Medicine","med_city":"Stony Brook","med_state_name":"New York","med_est":1971,"med_degree":"MD","med_address":"STONY BROOK UNIV HSC SCH MED STONY BROOK NY 11794","med_mcat_score":514,"med_lon":-73.1162,"med_lat":40.9101,"med_state":"36","med_county":"103","med_tract":"158007","med_geoid":"36103158007","med_n_primary":1067,"med_n_specialty":2884},{"med_code":"03575","med_school_name":"New York Institute of Technology College of Osteopathic Medicine","med_city":"Old Westbury","med_state_name":"New York","med_est":1977,"med_degree":"DO","med_address":"NY COLL OF OSTEO MED NY INST OF TECH OLD WESTBURY,","med_mcat_score":504,"med_lon":-73.6055,"med_lat":40.8094,"med_state":"36","med_county":"059","med_tract":"517705","med_geoid":"36059517705","med_n_primary":1829,"med_n_specialty":3225},{"med_code":"03601","med_school_name":"University of North Carolina School of Medicine","med_city":"Chapel Hill","med_state_name":"North Carolina","med_est":1879,"med_degree":"MD","med_address":"UNIV OF NC CHAPEL HILL SCH OF MED, CHAPEL HILL NC","med_mcat_score":512,"med_lon":-79.0522,"med_lat":35.9061,"med_state":"37","med_county":"135","med_tract":"011602","med_geoid":"37135011602","med_n_primary":2132,"med_n_specialty":4264},{"med_code":"03605","med_school_name":"Wake Forest School of Medicine","med_city":"Winston-Salem","med_state_name":"North Carolina","med_est":1902,"med_degree":"MD","med_address":"WAKE FOREST UNIV SCH OF MED, WINSTON-SALEM, NC 271","med_mcat_score":511,"med_lon":-80.2399,"med_lat":36.1002,"med_state":"37","med_county":"067","med_tract":"000100","med_geoid":"37067000100","med_n_primary":1315,"med_n_specialty":3118},{"med_code":"03607","med_school_name":"Duke University School of Medicine","med_city":"Durham","med_state_name":"North Carolina","med_est":1930,"med_degree":"MD","med_address":"DUKE UNIV SCH OF MED, DURHAM NC 27710","med_mcat_score":516,"med_lon":-78.9382,"med_lat":36.0054,"med_state":"37","med_county":"063","med_tract":"001501","med_geoid":"37063001501","med_n_primary":953,"med_n_specialty":3611},{"med_code":"03608","med_school_name":"The Brody School of Medicine at East Carolina University","med_city":"Greenville","med_state_name":"North Carolina","med_est":1977,"med_degree":"MD","med_address":"THE BRODY SCH OF MED AT E CAROLINA  UNIV,  GREENVI","med_mcat_score":506,"med_lon":-77.4028,"med_lat":35.6096,"med_state":"37","med_county":"147","med_tract":"000601","med_geoid":"37147000601","med_n_primary":971,"med_n_specialty":1334},{"med_code":"03701","med_school_name":"University of North Dakota School of Medicine and Health Sciences","med_city":"Grand Forks","med_state_name":"North Dakota","med_est":1905,"med_degree":"MD","med_address":"UNIV OF ND SCH OF MED AND HLTH SCI, GRAND FORKS ND","med_mcat_score":503,"med_lon":-97.0683,"med_lat":47.9321,"med_state":"38","med_county":"035","med_tract":"010300","med_geoid":"38035010300","med_n_primary":767,"med_n_specialty":1276},{"med_code":"03841","med_school_name":"University of Cincinnati College of Medicine","med_city":"Cincinnati","med_state_name":"Ohio","med_est":1819,"med_degree":"MD","med_address":"UNIV OF CINCINNATI COLL OF MED, CINCINNATI OH 4526","med_mcat_score":515,"med_lon":-84.5037,"med_lat":39.1386,"med_state":"39","med_county":"061","med_tract":"003200","med_geoid":"39061003200","med_n_primary":2176,"med_n_specialty":4738},{"med_code":"03806","med_school_name":"Case Western Reserve University School of Medicine","med_city":"Cleveland","med_state_name":"Ohio","med_est":1843,"med_degree":"MD","med_address":"CASE WESTERN RESERVE UNIV SCH OF MED, CLEVELAND OH","med_mcat_score":517,"med_lon":-81.6042,"med_lat":41.5049,"med_state":"39","med_county":"035","med_tract":"119100","med_geoid":"39035119100","med_n_primary":1742,"med_n_specialty":4783},{"med_code":"03840","med_school_name":"The Ohio State University College of Medicine","med_city":"Columbus","med_state_name":"Ohio","med_est":1914,"med_degree":"MD","med_address":"OH STATE UNIV COLL OF MED AND PUB HLTH, COLUMBUS O","med_lon":-83.0168,"med_lat":39.9941,"med_state":"39","med_county":"049","med_tract":"001122","med_geoid":"39049001122","med_n_primary":2770,"med_n_specialty":6323},{"med_code":"03843","med_school_name":"University of Toledo College of Medicine","med_city":"Toledo","med_state_name":"Ohio","med_est":1964,"med_degree":"MD","med_address":"UNIV OF TOLEDO COLL OF MED, TOLEDO OH  43699","med_mcat_score":511,"med_lon":-83.6158,"med_lat":41.6167,"med_state":"39","med_county":"095","med_tract":"006800","med_geoid":"39095006800","med_n_primary":1766,"med_n_specialty":3529},{"med_code":"03845","med_school_name":"Boonshoft School of Medicine at Wright State University","med_city":"Dayton","med_state_name":"Ohio","med_est":1973,"med_degree":"MD","med_address":"WRIGHT S U BOONSHOFT SOM, DAYTON OH 45401","med_mcat_score":508,"med_lon":-84.1857,"med_lat":39.7463,"med_state":"39","med_county":"113","med_tract":"003404","med_geoid":"39113003404","med_n_primary":1341,"med_n_specialty":1812},{"med_code":"03844","med_school_name":"Northeast Ohio Medical University College of Medicine","med_city":"Rootstown","med_state_name":"Ohio","med_est":1973,"med_degree":"MD","med_address":"NORTHEASTERN OH UNIVS COLL OF MED, ROOTSTOWN OH 44","med_mcat_score":505,"med_lon":-81.2456,"med_lat":41.1032,"med_state":"39","med_county":"133","med_tract":"601802","med_geoid":"39133601802","med_n_primary":1046,"med_n_specialty":2509},{"med_code":"03875","med_school_name":"Ohio University Heritage College of Osteopathic Medicine","med_city":"Athens, Dublin, & Cleveland (Warrensville Heights)","med_state_name":"Ohio","med_est":1975,"med_degree":"DO","med_address":"OHIO UNIV, COLL OF OSTEO MED, ATHENS OH 45701","med_mcat_score":502,"med_lon":-82.1058,"med_lat":39.3244,"med_state":"39","med_county":"009","med_tract":"973101","med_geoid":"39009973101","med_n_primary":1134,"med_n_specialty":1835},{"med_code":"03806","med_school_name":"Cleveland Clinic Lerner College of Medicine","med_city":"Cleveland","med_state_name":"Ohio","med_est":2002,"med_degree":"MD","med_address":"CASE WESTERN RESERVE UNIV SCH OF MED, CLEVELAND OH","med_mcat_score":517,"med_lon":-81.6042,"med_lat":41.5049,"med_state":"39","med_county":"035","med_tract":"119100","med_geoid":"39035119100","med_n_primary":1742,"med_n_specialty":4783},{"med_code":"03901","med_school_name":"University of Oklahoma College of Medicine","med_city":"Oklahoma City","med_state_name":"Oklahoma","med_est":1900,"med_degree":"MD","med_address":"UNIV OF OK COLL OF MED, OKLAHOMA CITY OK 73190","med_mcat_score":507,"med_lon":-97.4977,"med_lat":35.4798,"med_state":"40","med_county":"109","med_tract":"102700","med_geoid":"40109102700","med_n_primary":2045,"med_n_specialty":4255},{"med_code":"03979","med_school_name":"Oklahoma State University Center for Health Sciences College of Osteopathic Medicine","med_city":"Tulsa","med_state_name":"Oklahoma","med_est":1972,"med_degree":"DO","med_address":"OK STATE UNIV, COLL OF OSTEO MED, TULSA, OK  74107","med_mcat_score":500,"med_lon":-96.0061,"med_lat":36.1379,"med_state":"40","med_county":"143","med_tract":"004600","med_geoid":"40143004600","med_n_primary":947,"med_n_specialty":1453},{"med_code":"04002","med_school_name":"Oregon Health & Science University School of Medicine","med_city":"Portland","med_state_name":"Oregon","med_est":1887,"med_degree":"MD","med_address":"OR HLTH SCI UNIV SCH OF MED, PORTLAND OR 97201","med_mcat_score":510,"med_lon":-122.6859,"med_lat":45.4989,"med_state":"41","med_county":"051","med_tract":"005800","med_geoid":"41051005800","med_n_primary":1575,"med_n_specialty":2778},{"med_code":"04101","med_school_name":"Perelman School of Medicine at the University of Pennsylvania","med_city":"Philadelphia","med_state_name":"Pennsylvania","med_est":1765,"med_degree":"MD","med_address":"UNIV OF PA SCH OF MED, PHILADELPHIA PA 19104","med_mcat_score":518,"med_lon":-75.1926,"med_lat":39.9476,"med_state":"42","med_county":"101","med_tract":"036900","med_geoid":"42101036900","med_n_primary":1593,"med_n_specialty":5328},{"med_code":"04102","med_school_name":"Sidney Kimmel Medical College at Thomas Jefferson University","med_city":"Philadelphia","med_state_name":"Pennsylvania","med_est":1824,"med_degree":"MD","med_address":"JEFFERSON MED COLL-THOS JEFFERSON UNIV, PHILADELPH","med_mcat_score":512,"med_lon":-75.156,"med_lat":39.9489,"med_state":"42","med_county":"101","med_tract":"000600","med_geoid":"42101000600","med_n_primary":2777,"med_n_specialty":7208},{"med_code":"04112","med_school_name":"University of Pittsburgh School of Medicine","med_city":"Pittsburgh","med_state_name":"Pennsylvania","med_est":1883,"med_degree":"MD","med_address":"UNIV OF PITTSBURGH SCH OF MED, PITTSBURGH PA 15261","med_mcat_score":515,"med_lon":-79.9613,"med_lat":40.4431,"med_state":"42","med_county":"003","med_tract":"982200","med_geoid":"42003982200","med_n_primary":1682,"med_n_specialty":4262},{"med_code":"04177","med_school_name":"Philadelphia College of Osteopathic Medicine","med_city":"Philadelphia","med_state_name":"Pennsylvania","med_est":1899,"med_degree":"DO","med_address":"PHILADELPHIA COLL OF OSTEO MED, PHILADELPHIA PA 19","med_mcat_score":500,"med_lon":-75.2165,"med_lat":40.0051,"med_state":"42","med_county":"101","med_tract":"012204","med_geoid":"42101012204","med_n_primary":3489,"med_n_specialty":4783},{"med_code":"04113","med_school_name":"Temple University School of Medicine","med_city":"Philadelphia, Pittsburgh (branch campus, begins 2013), Bethlehem (branch campus, begins 2011)","med_state_name":"Pennsylvania","med_est":1901,"med_degree":"MD","med_address":"TEMPLE UNIV SCH OF MED, PHILADELPHIA PA 19140","med_mcat_score":512,"med_lon":-75.1522,"med_lat":40.0069,"med_state":"42","med_county":"101","med_tract":"020101","med_geoid":"42101020101","med_n_primary":2338,"med_n_specialty":5441},{"med_code":"04114","med_school_name":"Pennsylvania State University College of Medicine","med_city":"Hershey","med_state_name":"Pennsylvania","med_est":1963,"med_degree":"MD","med_address":"PA STATE UNIV COLL OF MED, HERSHEY PA 17033","med_mcat_score":509,"med_lon":-76.6771,"med_lat":40.265,"med_state":"42","med_county":"043","med_tract":"024105","med_geoid":"42043024105","med_n_primary":1329,"med_n_specialty":3121},{"med_code":"04178","med_school_name":"Lake Erie College of Osteopathic Medicine","med_city":"Erie & Greensburg","med_state_name":"Pennsylvania","med_est":1992,"med_degree":"DO","med_address":"LAKE ERIE COLL OF OSTEO MED, ERIE, PA  16509","med_mcat_score":503,"med_lon":-80.1059,"med_lat":42.0808,"med_state":"42","med_county":"049","med_tract":"003000","med_geoid":"42049003000","med_n_primary":817,"med_n_specialty":1577},{"med_code":"04301","med_school_name":"Alpert Medical School at Brown University","med_city":"Providence","med_state_name":"Rhode Island","med_est":1811,"med_degree":"MD","med_address":"BROWN MEDICAL SCHOOL, PROVIDENCE RI 02912","med_mcat_score":515,"med_lon":-71.4087,"med_lat":41.8188,"med_state":"44","med_county":"007","med_tract":"000600","med_geoid":"44007000600","med_n_primary":1029,"med_n_specialty":2235},{"med_code":"04501","med_school_name":"Medical University of South Carolina College of Medicine","med_city":"Charleston","med_state_name":"South Carolina","med_est":1823,"med_degree":"MD","med_address":"MED UNIV OF SC COLL OF MED, CHARLESTON SC 29425","med_mcat_score":509,"med_lon":-79.9485,"med_lat":32.7866,"med_state":"45","med_county":"019","med_tract":"000600","med_geoid":"45019000600","med_n_primary":1891,"med_n_specialty":4187},{"med_code":"04504","med_school_name":"University of South Carolina School of Medicine","med_city":"Columbia","med_state_name":"South Carolina","med_est":1977,"med_degree":"MD","med_address":"UNIV OF SC SCH OF MED, COLUMBIA SC 29208","med_mcat_score":506,"med_lon":-81.0274,"med_lat":33.9961,"med_state":"45","med_county":"079","med_tract":"002900","med_geoid":"45079002900","med_n_primary":883,"med_n_specialty":1445},{"med_code":"04601","med_school_name":"Sanford School of Medicine of the University of South Dakota","med_city":"Vermillion","med_state_name":"South Dakota","med_est":1907,"med_degree":"MD","med_address":"UNIV OF SD SCH OF MED, VERMILLION SD,57069","med_mcat_score":509,"med_lon":-96.9285,"med_lat":42.7822,"med_state":"46","med_county":"027","med_tract":"965900","med_geoid":"46027965900","med_n_primary":682,"med_n_specialty":1204},{"med_code":"04706","med_school_name":"University of Tennessee College of Medicine","med_city":"Memphis, Chattanooga, Knoxville (only 3rd and 4th-year)","med_state_name":"Tennessee","med_est":1850,"med_degree":"MD","med_address":"UNIV OF TN, HLTH SCI CTR, COLL OF MED, MEMPHIS TN","med_mcat_score":510,"med_lon":-90.0325,"med_lat":35.1381,"med_state":"47","med_county":"157","med_tract":"003700","med_geoid":"47157003700","med_n_primary":2424,"med_n_specialty":4821},{"med_code":"04705","med_school_name":"Vanderbilt University School of Medicine","med_city":"Nashville","med_state_name":"Tennessee","med_est":1874,"med_degree":"MD","med_address":"VANDERBILT UNIV SCH OF MED, NASHVILLE TN 37232","med_mcat_score":520,"med_lon":-86.8025,"med_lat":36.1422,"med_state":"47","med_county":"037","med_tract":"016500","med_geoid":"47037016500","med_n_primary":902,"med_n_specialty":3391},{"med_code":"04707","med_school_name":"Meharry Medical College School of Medicine","med_city":"Nashville","med_state_name":"Tennessee","med_est":1876,"med_degree":"MD","med_address":"MEHARRY MED COLL SCH OF MED, NASHVILLE TN 37208","med_mcat_score":499,"med_lon":-86.8069,"med_lat":36.1671,"med_state":"47","med_county":"037","med_tract":"014200","med_geoid":"47037014200","med_n_primary":1485,"med_n_specialty":2028},{"med_code":"04720","med_school_name":"East Tennessee State University James H. Quillen College of Medicine","med_city":"Johnson City","med_state_name":"Tennessee","med_est":1978,"med_degree":"MD","med_address":"E TN STATE UNIV J H QUILLEN COLL OF MED, JOHNSON C","med_mcat_score":506,"med_lon":-82.3789,"med_lat":36.3094,"med_state":"47","med_county":"179","med_tract":"062000","med_geoid":"47179062000","med_n_primary":759,"med_n_specialty":1144},{"med_code":"04802","med_school_name":"University of Texas Medical Branch School of Medicine","med_city":"Galveston","med_state_name":"Texas","med_est":1891,"med_degree":"MD","med_address":"UNIV OF TX MED BRANCH GALVESTON, GALVESTON TX 7755","med_mcat_score":508,"med_lon":-94.7759,"med_lat":29.3107,"med_state":"48","med_county":"167","med_tract":"724300","med_geoid":"48167724300","med_n_primary":2612,"med_n_specialty":5873},{"med_code":"04804","med_school_name":"Baylor College of Medicine","med_city":"Houston, Texas","med_state_name":"Texas","med_est":1900,"med_degree":"MD","med_address":"BAYLOR COLL OF MED, HOUSTON TX 77030","med_mcat_score":515,"med_lon":-95.3962,"med_lat":29.7105,"med_state":"48","med_county":"201","med_tract":"313100","med_geoid":"48201313100","med_n_primary":1781,"med_n_specialty":5357},{"med_code":"04812","med_school_name":"University of Texas Southwestern Medical School at Dallas","med_city":"Dallas","med_state_name":"Texas","med_est":1943,"med_degree":"MD","med_address":"U OF TX SOUTHWESTERN MED SCH AT DALLAS,  DALLAS TX","med_mcat_score":514,"med_lon":-96.8402,"med_lat":32.8121,"med_state":"48","med_county":"113","med_tract":"010000","med_geoid":"48113010000","med_n_primary":2260,"med_n_specialty":6323},{"med_code":"04813","med_school_name":"University of Texas School of Medicine at San Antonio","med_city":"San Antonio","med_state_name":"Texas","med_est":1959,"med_degree":"MD","med_address":"UNIV OF TX MED SCH AT SAN ANTONIO, SAN ANTONIO TX","med_mcat_score":509,"med_lon":-98.5754,"med_lat":29.5075,"med_state":"48","med_county":"029","med_tract":"181402","med_geoid":"48029181402","med_n_primary":2355,"med_n_specialty":5237},{"med_code":"04815","med_school_name":"Texas Tech University Health Sciences Center School of Medicine","med_city":"Lubbock","med_state_name":"Texas","med_est":1969,"med_degree":"MD","med_address":"TX TECH UNIV HLTH SCI CTR SCH OF MED, LUBBOCK TX 7","med_mcat_score":508,"med_lon":-101.8919,"med_lat":33.5891,"med_state":"48","med_county":"303","med_tract":"000500","med_geoid":"48303000500","med_n_primary":1395,"med_n_specialty":2675},{"med_code":"04878","med_school_name":"University of North Texas Health Science Center Texas College of Osteopathic Medicine","med_city":"Fort Worth","med_state_name":"Texas","med_est":1970,"med_degree":"DO","med_address":"UNIV NORTH TX HLTH SCI CTR, COLL OSTEO MED, FT WOR","med_mcat_score":507,"med_lon":-97.3689,"med_lat":32.7501,"med_state":"48","med_county":"439","med_tract":"102100","med_geoid":"48439102100","med_n_primary":1730,"med_n_specialty":1926},{"med_code":"04814","med_school_name":"University of Texas Medical School at Houston","med_city":"Houston","med_state_name":"Texas","med_est":1972,"med_degree":"MD","med_address":"U OF TX MED SCH AT HOUSTON, HOUSTON TX 77225","med_mcat_score":511,"med_lon":-95.3971,"med_lat":29.7128,"med_state":"48","med_county":"201","med_tract":"313100","med_geoid":"48201313100","med_n_primary":2256,"med_n_specialty":5030},{"med_code":"04816","med_school_name":"Texas A&M Health Science Center College of Medicine","med_city":"College Station","med_state_name":"Texas","med_est":1977,"med_degree":"MD","med_address":"TX A & M UNIV SYS HSC, COLL OF MED, COLLEGE STATIO","med_mcat_score":510,"med_lon":-96.3365,"med_lat":30.6185,"med_state":"48","med_county":"041","med_tract":"002015","med_geoid":"48041002015","med_n_primary":871,"med_n_specialty":1705},{"med_code":"04901","med_school_name":"University of Utah School of Medicine","med_city":"Salt Lake City","med_state_name":"Utah","med_est":1906,"med_degree":"MD","med_address":"UNIV OF UT SCH OF MED, SALT LAKE CTY UT 84132","med_mcat_score":510,"med_lon":-111.8357,"med_lat":40.7704,"med_state":"49","med_county":"035","med_tract":"101400","med_geoid":"49035101400","med_n_primary":1172,"med_n_specialty":2940},{"med_code":"05002","med_school_name":"University of Vermont College of Medicine","med_city":"Burlington","med_state_name":"Vermont","med_est":1822,"med_degree":"MD","med_address":"UNIV OF VT COLL OF MED, BURLINGTON VT 05405","med_mcat_score":512,"med_lon":-73.1936,"med_lat":44.4778,"med_state":"50","med_county":"007","med_tract":"003900","med_geoid":"50007003900","med_n_primary":1275,"med_n_specialty":2689},{"med_code":"05101","med_school_name":"University of Virginia School of Medicine","med_city":"Charlottesville","med_state_name":"Virginia","med_est":1827,"med_degree":"MD","med_address":"UNIV OF VA SCH OF MED HLTH SYS, CHARLOTTESVILLE VA","med_mcat_score":518,"med_lon":-78.4992,"med_lat":38.0319,"med_state":"51","med_county":"540","med_tract":"000600","med_geoid":"51540000600","med_n_primary":1626,"med_n_specialty":4170},{"med_code":"05104","med_school_name":"VCU School of Medicine, Medical College of Virginia Health Sciences Division","med_city":"Richmond","med_state_name":"Virginia","med_est":1838,"med_degree":"MD","med_address":"VA COMMONWEALTH UNIV, SCH OF MED, RICHMOND VA 2329","med_mcat_score":511,"med_lon":-77.4303,"med_lat":37.5397,"med_state":"51","med_county":"760","med_tract":"030200","med_geoid":"51760030200","med_n_primary":2372,"med_n_specialty":4794},{"med_code":"05107","med_school_name":"Eastern Virginia Medical School","med_city":"Norfolk","med_state_name":"Virginia","med_est":1973,"med_degree":"MD","med_address":"E VA MED SCH OF M C OF HAMPTON RDS, NORFOLK VA  23","med_mcat_score":512,"med_lon":-76.3036,"med_lat":36.8604,"med_state":"51","med_county":"710","med_tract":"004002","med_geoid":"51710004002","med_n_primary":1324,"med_n_specialty":2365},{"med_code":"05404","med_school_name":"University of Washington School of Medicine","med_city":"Seattle; Bozeman, MT - Anchorage, AK - Moscow, ID - Laramie, WY (only 1st-year)","med_state_name":"Washington","med_est":1946,"med_degree":"MD","med_address":"UNIV OF WA SCH OF MED, SEATTLE WA 98195","med_mcat_score":507,"med_lon":-122.3084,"med_lat":47.6499,"med_state":"53","med_county":"033","med_tract":"005302","med_geoid":"53033005302","med_n_primary":2856,"med_n_specialty":4279},{"med_code":"05501","med_school_name":"West Virginia University School of Medicine","med_city":"Morgantown;Charleston &Martinsburg (only clinical years)","med_state_name":"West Virginia","med_est":1902,"med_degree":"MD","med_address":"WV UNIV SCH OF MED, MORGANTOWN WV 26506","med_mcat_score":507,"med_lon":-79.9581,"med_lat":39.6548,"med_state":"54","med_county":"061","med_tract":"010201","med_geoid":"54061010201","med_n_primary":1168,"med_n_specialty":2530},{"med_code":"05575","med_school_name":"West Virginia School of Osteopathic Medicine","med_city":"Lewisburg","med_state_name":"West Virginia","med_est":1974,"med_degree":"DO","med_address":"WV SCH OF OSTEO MED, LEWISBURG WV 24901","med_mcat_score":500,"med_lon":-80.4381,"med_lat":37.804,"med_state":"54","med_county":"025","med_tract":"950600","med_geoid":"54025950600","med_n_primary":1038,"med_n_specialty":1271},{"med_code":"05502","med_school_name":"Joan C. Edwards School of Medicine at Marshall University","med_city":"Huntington","med_state_name":"West Virginia","med_est":1977,"med_degree":"MD","med_address":"J C EDWARDS SCH MED MARSHALL U, HUNTINGTON WV 2575","med_mcat_score":501,"med_lon":-82.4269,"med_lat":38.4091,"med_state":"54","med_county":"011","med_tract":"001500","med_geoid":"54011001500","med_n_primary":687,"med_n_specialty":1022},{"med_code":"05605","med_school_name":"University of Wisconsin School of Medicine and Public Health","med_city":"Madison","med_state_name":"Wisconsin","med_est":1907,"med_degree":"MD","med_address":"UNIV OF WI MED SCH, MADISON WI 53706","med_mcat_score":512,"med_lon":-89.4297,"med_lat":43.0779,"med_state":"55","med_county":"025","med_tract":"003200","med_geoid":"55025003200","med_n_primary":2086,"med_n_specialty":4165},{"med_code":"05606","med_school_name":"Medical College of Wisconsin","med_city":"Milwaukee, Green Bay, Wausau","med_state_name":"Wisconsin","med_est":1912,"med_degree":"MD","med_address":"MED COLL OF WI, MILWAUKEE WI 53226","med_mcat_score":510,"med_lon":-88.0211,"med_lat":43.0436,"med_state":"55","med_county":"079","med_tract":"185300","med_geoid":"55079185300","med_n_primary":2433,"med_n_specialty":5346},{"med_code":"03501","med_school_name":"Columbia University Roy and Diana Vagelos College of Physicians and Surgeons","med_city":"Manhattan","med_state_name":"New York","med_est":1767,"med_degree":"MD","med_address":"Columbia University Roy and Diana Vagelos College of Physicians and Surgeons, New York, Manhattan","med_mcat_score":519,"med_lon":-73.9412,"med_lat":40.8411,"med_n_primary":1261,"med_n_specialty":5665},{"med_code":"04115","med_school_name":"Drexel University College of Medicine","med_city":"Philadelphia","med_state_name":"Pennsylvania","med_est":1848,"med_degree":"MD","med_address":"Drexel University College of Medicine, Pennsylvania, Philadelphia","med_mcat_score":511,"med_lon":-75.1796,"med_lat":40.0193,"med_n_primary":1285,"med_n_specialty":3328},{"med_code":"05175","med_school_name":"Edward Via College of Osteopathic Medicine","med_city":"Blacksburg","med_state_name":"Virginia","med_est":2002,"med_degree":"DO","med_address":"Edward Via College of Osteopathic Medicine, Virginia, Blacksburg","med_mcat_score":500,"med_lon":-80.4061,"med_lat":37.1997,"med_n_primary":375,"med_n_specialty":647}]
